{
  "resultcode": 0,
  "data": {
    "searchList": [
      {
        "lat": 37.44823571,
        "lng": 126.41238153,
        "name": "용유초등학교",
        "address": "인천 중구 남북로87번길 4"
      },
      {
        "lat": 37.39035377,
        "lng": 126.42510418,
        "name": "용유초등학교무의분교장",
        "address": "인천 중구 대무의로 288-17"
      },
      {
        "lat": 37.44809683,
        "lng": 126.41240931,
        "name": "인천용유초등학교병설유치원",
        "address": "인천 중구 남북로87번길 4"
      },
      {
        "lat": 37.44606926,
        "lng": 126.41043732,
        "name": "용유초등학교삼거리[버스정류장]",
        "address": "인천 중구"
      },
      {
        "lat": 37.39043709,
        "lng": 126.42515973,
        "name": "지진옥외대피장소 용유초등학교 무의분교장",
        "address": "인천 중구 대무의로 302-17"
      },
      {
        "lat": 37.44809683,
        "lng": 126.41249264,
        "name": "지진옥외대피장소 용유초등학교운동장",
        "address": "인천 중구 남북로87번길 4"
      },
      {
        "lat": 37.44809683,
        "lng": 126.41249264,
        "name": "지진겸용 임시주거시설 용유초등학교",
        "address": "인천 중구 남북로87번길 4"
      },
      {
        "lat": 37.48351112,
        "lng": 126.51187147,
        "name": "운서초등학교",
        "address": "인천 중구 운서2로 57"
      },
      {
        "lat": 37.49867558,
        "lng": 126.48631783,
        "name": "삼목초등학교",
        "address": "인천 중구 신도시북로 42"
      },
      {
        "lat": 37.49192635,
        "lng": 126.48590139,
        "name": "공항초등학교",
        "address": "인천 중구 신도시남로 43"
      },
      {
        "lat": 37.49148195,
        "lng": 126.48509592,
        "name": "공항초등학교 정문",
        "address": "인천 중구 신도시남로 43"
      },
      {
        "lat": 37.49237075,
        "lng": 126.48601248,
        "name": "공항초등학교 후문",
        "address": "인천 중구 신도시남로 43"
      },
      {
        "lat": 37.49153751,
        "lng": 126.48570697,
        "name": "인천공항유치원",
        "address": "인천 중구 신도시남로 43"
      },
      {
        "lat": 37.48348335,
        "lng": 126.51192702,
        "name": "인천운서초등학교병설유치원 폐원",
        "address": "인천 중구 운서2로 57"
      },
      {
        "lat": 37.49862003,
        "lng": 126.48629006,
        "name": "지진옥외대피장소 삼목초등학교운동장",
        "address": "인천 중구 신도시북로 42"
      },
      {
        "lat": 37.48381665,
        "lng": 126.51217699,
        "name": "지진옥외대피장소 운서초등학교운동장",
        "address": "인천 중구 운서2로 57"
      },
      {
        "lat": 37.49742568,
        "lng": 126.4840403,
        "name": "지진겸용 임시주거시설 공항초등학교",
        "address": "인천 중구 영종대로27번길 49"
      },
      {
        "lat": 37.4917597,
        "lng": 126.48573474,
        "name": "지진옥외대피장소 인천공항초등학교운동장",
        "address": "인천 중구 신도시남로 43"
      },
      {
        "lat": 36.3259948,
        "lng": 127.46528929,
        "name": "용운중학교",
        "address": "대전 동구 용운로 208"
      },
      {
        "lat": 37.48381665,
        "lng": 126.51220477,
        "name": "화학사고대피소 인천운서초등학교 체육관",
        "address": "인천 중구 운서2로 57"
      }
    ]
  }
}
